location_name,final_lat,final_long,source,country,state/province,county,city/town,ward,suburb/village,street,house number,postal code
Siaya District Hospital,0.0638712,34.2869563,Google,Kenya,Siaya,,Siaya,,,,,
Bondo District Hospital,-0.0944798,34.2750648,Google,Kenya,Siaya,,Bondo,Nyawita,,,,
St Elizabeth Lwak Mission Health Centre,-0.140612,34.357236,Google,Kenya,Siaya,,Lwak,,,,,
Madiany Sub County Hospital,-0.2813,34.3224,HDX,Kenya,Siaya,,Pap Kodero,,,,,
Ong'ielo Health Centre,-0.1713872,34.3785314,Google,Kenya,Siaya,,,,,,,
Akala Health Centre,-0.0593157,34.4216041,Google,Kenya,Siaya,,,,,,,
Ahero County Hospital,-0.173183,34.923724,Code book,Kenya,Kisumu County,,Ahero,,,,,
Ahmadiyya Muslim Hospital - Shianda,0.313446701,34.57569657,Code book,Kenya,Kakamega County,,Shianda,,,,,
AWASI MISSION HEALTH CENTRE,-0.161626,35.073217,Code book,Kenya,Kisumu County,,Awasi,,,,,
Brother Andre Medical Centre,-1.243333,36.905018,Code book,Kenya,Nairobi County,,Nairobi,Dandora,,,,
Coptic Nursing Home-Maseno,-0.003674953,34.60111145,Code book,Kenya,Kisumu County,,Maseno,,,B1,1,
DISCIPLES OF MERCY HEALTH CENTRE,-0.052635,34.800871,Code book,Kenya,Kisumu County,,Kisumu,West Kajulu,,C34,,
HOLY FAMILY MISSION HOSPITAL -KORU,-0.185578,35.274391,Code book,Kenya,Kisumu County,,Koru,,,To Fortenant,,
Huruma Nursing Hospital,-1.257602,36.875364,Code book,Kenya,Nairobi County,,Nairobi,,,,,
Iguhu Sub County Hospital,0.16296,34.745985,Code book,Kenya,Kakamega County,,Kakamega,,,Iguhu Road,,
Itando Mission of Hope and Health Centre,0.085215,34.720227,Code book,Kenya,Vihiga County,,Maragoli,,,A1,,
Jahmii Kipawa Medical Centre,-1.252291,36.881492,Code book,Kenya,Nairobi County,,Nairobi,Kariobangi North,,Kamunde Road,,
Kasarani Maternity & Nursing Home,-1.221686,36.913392,Code book,Kenya,Nairobi County,,Nairobi,Kasarani Constituency,,Kairu Road,,
Kombewa County Hospital,-0.10352,34.518405,Code book,Kenya,Kisumu County,,Kombewa,,,,,
Masaba Hospital,-0.039321,34.630429,Code book,Kenya,Kisumu County,,Kisumu,,,,,
Melchizedek Hospital -Dagoretti Corner Kawangware,-1.29313,36.753611,Code book,Kenya,Nairobi County,,Nairobi,Maziwa,,Naivasha Road,,
Mkunga Maternity and Nursing Home,-1.2577,36.8909,Code book,Kenya,Nairobi County,,Nairobi,Dandora,,,,
Mungoma Hospital,0.047182,34.721663,Code book,Kenya,Vihiga County,,Majengo,,,C38,,
Mwangaza Ulio na Tumaini Clinic,-1.251062,36.891937,Code book,Kenya,Nairobi County,,Highridge Village,Korogocho,,,,
Nightingale Medical Centre - Kondele,-0.082045,34.776339,Code book,Kenya,Kisumu County,,Kisumu,Manyatta,,,,
Nightingale Medical Centre - Milimani,-0.108555,34.755877,Code book,Kenya,Kisumu County,,Kisumu,,,Okore Road,3,
Nimoli Medical Services -Kasarani,-1.2297,36.9205,Code book,Kenya,Nairobi County,,Nairobi,Kasarani Constituency,,,,
Patanisho Maternity and Nursing Home,-1.2791063,36.90944133,Code book,Kenya,Nairobi County,,Nairobi,Umoja,,Masimba Road,,
PRUDENT COTTAGE HOSPITAL,-1.254453,36.911259,Code book,Kenya,Nairobi County,,Nairobi,Njiru,,Koma Rock Road,,
Redeemed Gospel Church Health Center,-1.247174,36.887974,Code book,Kenya,Nairobi County,,Nairobi,Ruaraka,,,,
Ruaraka Uhai Neema Hospital,-1.227001,36.885123,Code book,Kenya,Nairobi County,,Nairobi,Kasarani Constituency,,,,
Samaritan Medical Services,-1.24245,36.912171,Code book,Kenya,Nairobi County,,Nairobi,Dandora,,Muigai Kenyatta Road,,
St Elizabeth Hospital - Chiga,-0.099907,34.844841,Code book,Kenya,Kisumu County,,Kisumu,East Kolwa,,,,
St Josephs Hospital Nyabondo,-0.338204,35.00945,Code book,Kenya,Kericho County,,Kap Sarok,,,,,
St Marys Hospital -Mumias,0.326795,34.498971,Code book,Kenya,Kakamega County,,,,,,,
St Monica Hospital - Kisumu,-0.045017,34.770895,Code book,Kenya,Kisumu County,,Kisumu,,,,,
St Vincent De Paul Health Centre,-0.16035,35.19488,Code book,Kenya,Kisumu County,,Muhoroni,,,,,
St. Clares Bolo Health Centre,-0.328039,34.851722,Code book,Kenya,Kisumu County,,Kusa,,,,,
St. Elizabeth Hospital Mukumu,0.212704,34.768082,Code book,Kenya,Kakamega County,,Mukumu,,,,,
St.Pius X Musoli Health Centre,0.20518,34.664565,Code book,Kenya,Kakamega County,,Musoli,,,,,
Star Children Hospital - Kisumu,-0.089656,34.762167,Code book,Kenya,Kisumu County,,Kisumu,,,,,
Star Hospital Kisumu Annex,-0.084515,34.790027,Code book,Kenya,Kisumu County,,Kisumu,Manyatta,,,,
EFFIDUASE DISTRICT HOSPITAL,6.8474,-1.3937,HDX,Ghana,Ashanti Region,Sekyere East,Effiduase,,,,,
EJISU HEALTH CENTRE,6.721,-1.4703,HDX,Ghana,Ashanti Region,Ejisu Municipal,Ejisu,,,,,
JUABEN GOVERNMENT DISTRICT HOSPITAL,6.816,-1.4139,HDX,Ghana,Ashanti Region,Juaben Municipal,Juaben,,,,,
CHIKWAWA DISTRICT HOSPITAL,-16.0235,34.7928,HDX,Malawi,Southern Region,Chikwawa,Chikwawa,,,,,
NANORO CENTRE M├⌐DICAL AVEC ANTENNE CHIRURGICALE,12.6884925,-2.1912946,Gmaps,Burkina Faso,Centre-Ouest,Boulkiemdé,Nanoro,,,,,
NAZOANGA CENTRE DE SANT├⌐ ET DE PROMOTION SOCIALE,12.6237,-2.1311,HDX,Burkina Faso,Centre-Ouest Region,Boulkiemde,Nazoanga,,,,,
NCHELENGE HEALTH CENTRE,-9.4842,28.77,HDX,Zambia,Luapula Province,Nchelenge,Kampampi,,,,,
Lungwena Health Centre,-14.2451342,35.2484252,Google,Malawi,Southern Region,Mangochi,Biti Kalanje,,,,,
Namwera Health Centre,-14.3639861,35.5024494,OSM,Malawi,Southern Region,Mangochi,Namwera,,,,,
Mangochi District Hospital,-14.4816937,35.2652693,Google,Malawi,Southern Region,Mangochi,Mangochi,,,,,
St Martin Hospital,-14.3472979,35.293978,Google,Malawi,Southern Region,Mangochi,Malindi,,,,,
Lungwena Health Centre,-14.2451342,35.2484252,Google,Malawi,Southern Region,Mangochi,Biti Kalanje,,,,,
Bangwe Health Centre,-15.8239623,35.0804385,Google,Malawi,Southern Region,Blantyre,Blantyre,Bangwe West,,,,
Chikowa Health Centre,-15.6714,34.871,HDX,Malawi,Southern Region,Blantyre,,,,,,
Dziwe Health Centre,-15.5636317,34.8801879,Google,Malawi,Southern Region,Blantyre,Walkers Ferry,,,,,
Kambenje Health Centre,-15.8531,35.564,HDX,Malawi,Southern Region,Mulanje,,,,,,
Likangala Health Centre,-15.4278,35.5445,HDX,Malawi,Southern Region,Zomba,,,,,,
Lirangwe Health Centre,-15.5294855,35.0298033,Google,Malawi,Southern Region,Blantyre,Lirangwe School,,,,,
Madziabango Health Centre,-15.9676986,34.9087036,Manual,Malawi,Southern Region,Blantyre,Mpingo,,,,,
Makhwira Health Centre,-16.0253,34.7896,HDX,Malawi,Southern Region,Chikwawa,Chikwawa,,,,,
Makwapala Health Centre,-15.3693987,35.4507854,Google,Malawi,Southern Region,Zomba,,,,,,
Maperera Health Centre,-16.1054,34.9156,HDX,Malawi,Southern Region,Chikwawa,John Malindeni,,,,,
Matawale Health Centre,-15.3905357,35.3596116,Google,Malawi,Southern Region,Zomba,Zomba,,,,,
Matiya Health Centre,-15.5337271,35.5478841,Google,Malawi,Southern Region,Zomba,Chigumukile Trading Centre,,,,,
Mayaka Health Centre,-15.5737543,35.3726978,Google,Malawi,Southern Region,Zomba,Zomba,,,,,
Ngabu Rural Hospital,-16.4593976,34.8922516,Google,Malawi,Southern Region,Chikwawa,Masanduko,,,,,
Mkumaniza Health Centre,-16.4795267,34.7245369,Google,Malawi,Southern Region,Chikwawa,,,,,,
Pirimiti Hospital,-15.4817583,35.4504633,Google,Malawi,Southern Region,Zomba,Thondwe,,,,,
South Lunzu Health Centre,-15.7268364,35.0545985,Google,Malawi,Southern Region,Blantyre,Blantyre,,,,,
Machinga District Hospital,-15.0617267,35.226049,Google,Malawi,Southern Region,Machinga,Liwonde,,,,,
Chilipa Health Centre,-14.7028,34.9739,HDX,Malawi,Southern Region,Mangochi,Bitchilipa,,,,,
Chipoka Health Centre,-13.9895,34.5156,HDX,Malawi,Central Region,Salima,Chipoka,,,,,
Kapire Health Centre,-14.7857041,34.9994326,Google,Malawi,Southern Region,Balaka,Celemu,,,,,
Katema Health Centre,-14.5258287,35.0375358,Google,Malawi,Southern Region,Mangochi,Katema,,,,,
Katuli Health Centre,-14.1800078,35.4445725,Google,Malawi,Southern Region,Mangochi,Mterera,,,,,
Koche Health Centre,-14.3331596,35.143396,Google,Malawi,Southern Region,Mangochi,Nkopola,,,M10,,
Lifeline Health Centre,-14.0902,34.5448,HDX,Malawi,Central Region,Dedza,Mua,,,,,
Lugola Health Centre,-13.962129,35.1414284,Google,Malawi,Southern Region,Mangochi,Baquira,,,,,
Lulanga Health Centre,-13.6871846,34.9173041,Google,Malawi,Southern Region,Mangochi,Mirango,,,,,
Lungwena Health Centre,-14.2451342,35.2484252,Google,Malawi,Southern Region,Mangochi,Biti Kalanje,,,,,
Luwalika Health Centre,-14.2379315,35.4694501,Google,Malawi,Southern Region,Mangochi,mangochi,,,,,
Maganga Health Centre,-13.8467839,34.5592111,Google,Malawi,Central Region,Salima,,,,,,
Makanjira Health Centre,-13.7153,35.0469,Google,Malawi,Southern Region,Mangochi,Makanjila,,,,,
Malembo Health Centre,-14.2364,34.8254,Google,Malawi,Southern Region,Mangochi,,,,,,
Malukula Health Centre,-14.4427,35.3555,HDX,Malawi,Southern Region,Mangochi,Mangochi,,,,,
Mase Health Centre,-14.5806,35.3639,HDX,Malawi,Southern Region,Mangochi,Chiutula,,,,,
Mchoka Health Centre,-13.9260913,34.4898215,Google,Malawi,Central Region,Salima,Lifisi,,,,,
Monkey Bay Health Centre,-14.085,34.9108,Google,Malawi,Southern Region,Mangochi,Monkey Bay,,,,,
Mpondasi Health Centre,-14.4533,35.2442,Google,Malawi,Southern Region,Mangochi,Mangochi,,,,,
Namalaka Health Centre,-14.1239156,35.1930627,Google,Malawi,Southern Region,Mangochi,Kadango,,,,,
Namwera Health Centre,-14.3639861,35.5024494,OSM,Malawi,Southern Region,Mangochi,Namwera,,,,,
Nangalamu Health Centre,-14.4681,35.6731,HDX,Malawi,Southern Region,Mangochi,Budu,,,,,
Nankhwali Health Centre,-14.1351,34.84488,Google,Malawi,Southern Region,Mangochi,Nankhwali,,,,,
Ngodzi Health Centre,-14.0898452,34.511153,Google,Malawi,Central Region,Salima,,,,,,
Nkope Health Centre,-14.1971,35.0395,HDX,Malawi,Southern Region,Mangochi,Nkope Mission,,,,,
Phirilongwe Health Centre,-14.5879012,34.8988154,Google,Malawi,Southern Region,Mangochi,Makunula,,,,,
St Martin Hospital,-14.3472979,35.293978,Google,Malawi,Southern Region,Mangochi,Malindi,,,,,
Bilila Health Centre,-14.82489,34.85134,HDX,Malawi,Central Region,Ntcheu,Ciraldata,,,,,
Biriwiri Health Centre,-14.7606778,34.5575257,Google,Malawi,Central Region,Ntcheu,Ntcheu,,,,,
Daeyang Luke Hospital,-13.87609,33.80873,ArcGIS,Malawi,Central Region,Lilongwe,Lilongwe,,,,,
David Livingstone Memoria,-13.98173,33.78813,HDX,Malawi,Central Region,Lilongwe,Lilongwe,,,,,
Kadidi health centre,-15.6606573,35.0225412,Google,Malawi,Southern Region,Blantyre,Lunzu,,,,,
Kasinje Health Center,-14.52315,34.67642,HDX,Malawi,Central Region,Ntcheu,Kasinje,,,T382,,
Lobi Health Center,-14.39034,34.07182,HDX,Malawi,Central Region,Dedza,Lobi,,,,,
Makhetha health centre,-15.7812472,35.072488,Google,Malawi,Southern Region,Blantyre,Blantyre,,,,,
Masenjere Health Centre,-16.33721,35.09671,HDX,Malawi,Southern Region,Nsanje,Thekerani,,,,,
Mbiza Health Centre,-16.092856,35.3462355,Google,Malawi,Southern Region,Mulanje,Luchenza,,,,,
Mdeka Health Centre,-15.4679487,34.9425448,Google,Malawi,Southern Region,Blantyre,,,,,,
Mimosa Dispensary,-16.08574,35.61263,HDX,Malawi,Southern Region,Mulanje,,,,,,
Mpala Health Centre,-16.14386,35.52479,HDX,Malawi,Southern Region,Mulanje,,,,,,
Mulanje District Hospital,-16.02549,35.50785,HDX,Malawi,Southern Region,Mulanje,Mulanje,,,,,
Mulanje Mission Hospital,-16.02103,35.46436,HDX,Malawi,Southern Region,Mulanje,Mulanje,,,,,
Mulomba Health Centre,-15.76535,35.51182,HDX,Malawi,Southern Region,Phalombe,,,,,,
Muloza Heath Centre,-16.08016,35.71573,HDX,Malawi,Southern Region,Mulanje,,,,,,
Mwanza District Hospital,-15.591091,34.5108653,Google,Malawi,Southern Region,Mwanza,Mwanza,,,,,
Nsipe Rural Hospital,-14.86434,34.75233,HDX,Malawi,Central Region,Ntcheu,Malikholeni,,,,,
Trinity Hospital,-16.4187732,35.1715276,Google,Malawi,Southern Region,Nsanje,Muona,,,,,
Chirimba city clinic,-15.738968,35.025505,Reverse Geocoding,Malawi,Southern Region,Blantyre,Blantyre,,,,,
Bilila Health Centre,-14.82489,34.85134,HDX,Malawi,Central Region,Ntcheu,Ciraldata,,,,,
Biriwiri Health Centre,-14.7606778,34.5575257,Google,Malawi,Central Region,Ntcheu,Ntcheu,,,,,
Daeyang Luke Hospital,-13.87609,33.80873,ArcGIS,Malawi,Central Region,Lilongwe,Lilongwe,,,,,
David Livingstone Memoria,-13.98173,33.78813,HDX,Malawi,Central Region,Lilongwe,Lilongwe,,,,,
Kadidi health centre,-15.6606573,35.0225412,Google,Malawi,Southern Region,Blantyre,Lunzu,,,,,
Kasinje Health Center,-14.52315,34.67642,HDX,Malawi,Central Region,Ntcheu,Kasinje,,,T382,,
Lobi Health Center,-14.39034,34.07182,HDX,Malawi,Central Region,Dedza,Lobi,,,,,
Makhetha health centre,-15.7812472,35.072488,Google,Malawi,Southern Region,Blantyre,Blantyre,,,,,
Masenjere Health Centre,-16.33721,35.09671,HDX,Malawi,Southern Region,Nsanje,Thekerani,,,,,
Mbiza Health Centre,-16.092856,35.3462355,Google,Malawi,Southern Region,Mulanje,Luchenza,,,,,
Mdeka Health Centre,-15.4679487,34.9425448,Google,Malawi,Southern Region,Blantyre,,,,,,
Mimosa Dispensary,-16.08574,35.61263,HDX,Malawi,Southern Region,Mulanje,,,,,,
Mpala Health Centre,-16.14386,35.52479,HDX,Malawi,Southern Region,Mulanje,,,,,,
Mulanje District Hospital,-16.02549,35.50785,HDX,Malawi,Southern Region,Mulanje,Mulanje,,,,,
Mulanje Mission Hospital,-16.02103,35.46436,HDX,Malawi,Southern Region,Mulanje,Mulanje,,,,,
Mulomba Health Centre,-15.76535,35.51182,HDX,Malawi,Southern Region,Phalombe,,,,,,
Muloza Heath Centre,-16.08016,35.71573,HDX,Malawi,Southern Region,Mulanje,,,,,,
Mwanza District Hospital,-15.591091,34.5108653,Google,Malawi,Southern Region,Mwanza,Mwanza,,,,,
Nsipe Rural Hospital,-14.86434,34.75233,HDX,Malawi,Central Region,Ntcheu,Malikholeni,,,,,
Trinity Hospital,-16.4187732,35.1715276,Google,Malawi,Southern Region,Nsanje,Muona,,,,,
Queen Elizabeth Central Hospital,-15.8021572,35.0206465,Google,Malawi,Southern Region,Blantyre,Blantyre,Ginnery Corner,,,,
Limbe Health Center,-15.8169469,35.0519846,Google,Malawi,Southern Region,Blantyre,Blantyre,,,Kenyatta Drive,,
Ndirande Health Centre,-15.7779982,35.0395757,OSM,Malawi,Southern Region,Blantyre,Blantyre,Ndirande,,,,
Bangwe Health Centre,-15.8239623,35.0804385,Google,Malawi,Southern Region,Blantyre,Blantyre,Bangwe West,,,,
Chilomoni Health Centre,-15.7709342,34.9819445,Google,Malawi,Southern Region,Blantyre,Blantyre,Kabula,,,,
EYETHU YARONA CLINIC,-25.9914,27.9274,HDX,South Africa,Gauteng,City of Johannesburg Metropolitan Municipality,,Nietgedacht 535-Jq,,,,1739
KwaMhlanga CHC,-25.4364,28.7131,HDX,South Africa,Mpumalanga,Nkangala District Municipality,KwaMhlanga,,,,,
Siphosesimbi CHC,-25.8616,29.1242,HDX,South Africa,Mpumalanga,Nkangala District Municipality,eMalahleni,Kwa-Guqa,,Joseph Ntuli Street,1960,1073
Empumelelweni CHC,-25.8505192,29.0867185,Google,South Africa,Mpumalanga,Nkangala District Municipality,eMalahleni,,,,,
Vlaklaagte 2 CHC,-25.3747087,28.8604746,Google,South Africa,Mpumalanga,Nkangala District Municipality,Buhlebesizwe,,,,,
Thembalethu CHC,-25.4066,28.7792,HDX,South Africa,Mpumalanga,Nkangala District Municipality,KwaMhlanga,Enkeldoornoog-B,,,,
Phola CHC,-26.0081,29.0354,HDX,South Africa,Mpumalanga,Nkangala District Municipality,Emalahleni,Phola,,Mtshali Street,1933,2230
Siyathemba CHC,-26.6545312,28.607746,A_GIS,South Africa,Mpumalanga,Gert Sibande District Municipality,Balfour,Siyathemba,,,,2410
Grootvlei CHC,-26.8043845,28.5024016,Google,South Africa,Mpumalanga,Gert Sibande District Municipality,Thaba-Kgwali,Myndorp,,Jakaranda Street,5,2420
Embalenhle CHC,-26.5405,29.0745,HDX,South Africa,Mpumalanga,Gert Sibande District Municipality,Embalenhle,Embalenhle,,Sibiya Street,2017,2285
Paulina Morapeli CHC,-26.5627,29.0742,HDX,South Africa,Mpumalanga,Gert Sibande District Municipality,Embalenhle,Embalenhle,,Mhlambanyat Street,23146,2285
Winifred Maboa CHC,-26.943,29.2189,HDX,South Africa,Mpumalanga,Gert Sibande District Municipality,Standerton,,,,,
Lebohang CHC,-26.37945,28.92112,A_GIS,South Africa,Mpumalanga,Gert Sibande District Municipality,Thuli Fakude,Lebohang,,,,2265
Athlone,-33.9666667,18.505,OSM,South Africa,Western Cape,City of Cape Town Metropolitan Municipality,Cape Town,Athlone,,Dunbar Street,21,7760
Atlantis,-33.5672222,18.5002778,OSM,South Africa,Western Cape,City of Cape Town Metropolitan Municipality,Cape Town,Robinvale,,Fiskaal Street,45,7349
Belhar,-33.9467293,18.6329265,ArcGIS,South Africa,Western Cape,City of Cape Town Metropolitan Municipality,Cape Town,Belhar 7,,Organ Street,37,7493
Bellville,-33.8942695,18.6294384,Google,South Africa,Western Cape,City of Cape Town Metropolitan Municipality,Cape Town,Oakdale,,Durban Road,155B,7530
Bishop Lavis,-33.9486111,18.5758333,OSM,South Africa,Western Cape,City of Cape Town Metropolitan Municipality,Cape Town,Bishop Lavis,,Drakenstein Circle,55,7490
Blackheath,-33.9543008,18.6971947,ArcGIS,South Africa,Western Cape,City of Cape Town Metropolitan Municipality,Cape Town,Blackheath,,Wimbledon Road,,7580
Blue Downs,-33.9872387,18.6907556,Google,South Africa,Western Cape,City of Cape Town Metropolitan Municipality,Cape Town,Blue Downs,,Hindle Road,138B,7100
Bonteheuwel,-33.9523103,18.5527831,Google,South Africa,Western Cape,City of Cape Town Metropolitan Municipality,Cape Town,Bonteheuwel,,Kiaat Road,47,7764
Bothasig,-33.8615426,18.5415884,Google,South Africa,Western Cape,City of Cape Town Metropolitan Municipality,Cape Town,Bothasig,,Vryburger Avenue,128,7441
Brackenfell,-33.8815898,18.6954479,Google,South Africa,Western Cape,City of Cape Town Metropolitan Municipality,Cape Town,Protea Hoogte,,Keurboom Avenue,25A,7560
Cape Town,-33.9271093,18.4200603,ArcGIS,South Africa,Western Cape,City of Cape Town Metropolitan Municipality,Cape Town,Cape Town City Centre,,Plein Street,120,8000
Charlesville,-33.9599403,18.566353,Google,South Africa,Western Cape,City of Cape Town Metropolitan Municipality,Cape Town,Charlesville,,John Jansen Road,9,7490
Dassenberg,-33.4961111,18.5141667,Google,South Africa,Western Cape,City of Cape Town Metropolitan Municipality,Cape Town,Atlantis,,,,
De Doorns,-33.479444,19.670833,OSM,South Africa,Western Cape,Cape Winelands District Municipality,De Doorns,De Doorns,,Violet Street,20,6875
Delft,-33.9655556,18.6444444,OSM,South Africa,Western Cape,City of Cape Town Metropolitan Municipality,Cape Town,Delft,,,,7100
Durbanville,-33.8402778,18.6494444,OSM,South Africa,Western Cape,City of Cape Town Metropolitan Municipality,Cape Town,Valmary Park,,Mills Street,15,7550
Edenvale,-34.03186754,18.85833726,Google,South Africa,Western Cape,City of Cape Town Metropolitan Municipality,Cape Town,Somerset West,,,,
Eersterivier,-34,18.7216667,OSM,South Africa,Western Cape,City of Cape Town Metropolitan Municipality,Cape Town,Rosedale,,Pinetree Way,25a,7100
Elsies Rivier,-33.930921,18.5772435,Google,South Africa,Western Cape,City of Cape Town Metropolitan Municipality,Cape Town,Elnor,,Balvenie Avenue,25A,7490
Factreton,-33.91214,18.5206,ArcGIS,South Africa,Western Cape,City of Cape Town Metropolitan Municipality,Cape Town,Windermere,,See Square,18,7405
Freedom Farm,-33.95059185,18.60069774,OSM,South Africa,Western Cape,City of Cape Town Metropolitan Municipality,Cape Town,Matroosfontein,,Stellenbosch Road,6A,7490
Goodwood,-33.9066667,18.5491667,OSM,South Africa,Western Cape,City of Cape Town Metropolitan Municipality,Cape Town,Goodwood Estate,,Alice Street,74B,7460
Gordons Bay,-34.1514673,18.8729732,Google,South Africa,Western Cape,City of Cape Town Metropolitan Municipality,Cape Town,Anchorage Park,,Immortelle Avenue,24,7140
Guguletho,-33.9820184,18.5670952,Google,South Africa,Western Cape,City of Cape Town Metropolitan Municipality,Cape Town,Guguletu,,Gasela Street,109,7750
HANOVER PARK,-33.9929381,18.5314753,Google,South Africa,Western Cape,City of Cape Town Metropolitan Municipality,Cape Town,Hanover Park,,Johnvlei Walk,6A,7780
Hanover Park,-33.9929381,18.5314753,Google,South Africa,Western Cape,City of Cape Town Metropolitan Municipality,Cape Town,Hanover Park,,Johnvlei Walk,6A,7780
Heideveld,-33.9641667,18.5488889,Google,South Africa,Western Cape,City of Cape Town Metropolitan Municipality,Cape Town,Heideveld,,Noreen Square,16,7764
Highlands Village,-34.0325264,18.5869924,ArcGIS,South Africa,Western Cape,City of Cape Town Metropolitan Municipality,Cape Town,Weltevreden Valley,,Edge Road,24B,7785
KENSINGTON,-33.9110826,18.50693377,OSM,South Africa,Western Cape,City of Cape Town Metropolitan Municipality,Cape Town,Kensington,,8th Avenue,134,7405
Kalksteenfontein,-33.9502778,18.5655556,OSM,South Africa,Western Cape,City of Cape Town Metropolitan Municipality,Cape Town,Kalksteenfontein,,Hanekam Street,40A,7490
Kempton Park,-26.0964372,28.2336325,OSM,South Africa,Gauteng,City of Ekurhuleni Metropolitan Municipality,Kempton Park,Gauteng,,Friedman Street,79,1620
Kensington,-33.9110826,18.50693377,OSM,South Africa,Western Cape,City of Cape Town Metropolitan Municipality,Cape Town,Kensington,,8th Avenue,134,7405
Kraaifontein,-33.84808,18.71723,OSM,South Africa,Western Cape,City of Cape Town Metropolitan Municipality,Cape Town,Peerless Park West,,Horak Street,165,7570
Kuilsrivier,-33.9269444,18.6855556,OSM,South Africa,Western Cape,City of Cape Town Metropolitan Municipality,Cape Town,Kuils River,,Hoop Street,59,7580
Macassar,-34.06040104,18.76337223,ArcGIS,South Africa,Western Cape,City of Cape Town Metropolitan Municipality,Cape Town,Macassar,,Musica Avenue,75A,7130
Maitland,-33.9225,18.4930556,OSM,South Africa,Western Cape,City of Cape Town Metropolitan Municipality,Cape Town,Maitland,,Norway Street,44b,7405
Manenberg,-33.9838663,18.5552215,Google,South Africa,Western Cape,City of Cape Town Metropolitan Municipality,Cape Town,Manenberg,,Kei Street,23,7767
Milnerton,-33.86882285,18.51154532,ArcGIS,South Africa,Western Cape,City of Cape Town Metropolitan Municipality,Cape Town,Marconi Beam,,,,7441
Mitchells Plain,-34.0485946,18.6056873,Google,South Africa,Western Cape,City of Cape Town Metropolitan Municipality,Cape Town,Westridge,,Drover Street,11,7802
Modderdam,-33.9257724,18.6321124,OSM,South Africa,Western Cape,City of Cape Town Metropolitan Municipality,Cape Town,Transnet,,Waterberry Crescent,108,7505
Montana,-33.4230556,19.2055556,OSM,South Africa,Western Cape,Cape Winelands District Municipality,Wolseley,Wolseley,,6th Street,46,6830
Mosselbaai,-34.1812126,22.1411053,ArcGIS,South Africa,Western Cape,Garden Route District Municipality,Mossel Bay,Mossel Bay Central,,George Road,2C,6500
Nyanga,-33.9953811,18.5849064,Google,South Africa,Western Cape,City of Cape Town Metropolitan Municipality,Cape Town,Nyanga,,Thembele Kwandla Street,34,7755
Oakdale,-33.8913889,18.6363889,OSM,South Africa,Western Cape,City of Cape Town Metropolitan Municipality,Cape Town,Oakdale,,Killarney Street,28,7530
Ottery,-34.0134669,18.5016432,ArcGIS,South Africa,Western Cape,City of Cape Town Metropolitan Municipality,Cape Town,Ottery,,,,7800
Paarl,-33.7310282,18.9642117,OSM,South Africa,Western Cape,Cape Winelands District Municipality,Paarl,Lemoenkloof,,Lady Grey Street,2,7646
Parow,-33.9025,18.5869444,OSM,South Africa,Western Cape,City of Cape Town Metropolitan Municipality,Cape Town,Glenlily,,Hopkins Street,42,7500
Phillipi,-34.01585085,18.59601656,OSM,South Africa,Western Cape,City of Cape Town Metropolitan Municipality,Cape Town,Heinz Park,,Daisy Crescent,64,7750
Ravensmead,-33.9211111,18.6063889,OSM,South Africa,Western Cape,City of Cape Town Metropolitan Municipality,Cape Town,Ravensmead,,Dalton Street,26,7493
Ruyterwacht,-33.9210462,18.5569818,ArcGIS,South Africa,Western Cape,City of Cape Town Metropolitan Municipality,Cape Town,Ruyterwacht,,Haarlem Way,62,7460
Silversands,-33.9797222,18.6780556,OSM,South Africa,Western Cape,City of Cape Town Metropolitan Municipality,Cape Town,Silversands,,Anise Street,7,7580
Silvertown,-33.9630556,18.5294444,OSM,South Africa,Western Cape,City of Cape Town Metropolitan Municipality,Cape Town,Silvertown,,Colwyn Road,46,7764
Springbok,-29.6660948,17.8831039,OSM,South Africa,Northern Cape,Namakwa District Municipality,Springbok,Springbok,,Van Riebeeck Street,0,8240
Stikland,-33.8922222,18.6691667,OSM,South Africa,Western Cape,City of Cape Town Metropolitan Municipality,Cape Town,Heemstede,,Heemstede Drive,55B,7530
Strandfontein,-34.0778759,18.5730321,OSM,South Africa,Western Cape,City of Cape Town Metropolitan Municipality,Cape Town,Mitchells Plain,,,,
Surrey Estate,-33.9763889,18.5458333,OSM,South Africa,Western Cape,City of Cape Town Metropolitan Municipality,Cape Town,Surrey Estate,,Taurus Road,87,7764
Thornton,-33.9236111,18.5352778,OSM,South Africa,Western Cape,City of Cape Town Metropolitan Municipality,Cape Town,Thornton,,,,7460
Unknown,-33.9530781,18.5715479,Google,South Africa,Western Cape,City of Cape Town Metropolitan Municipality,Cape Town,Valhalla Park,,Angela Street,63,7490
Valhalla Park,-33.9690855,18.6575119,Google,South Africa,Western Cape,City of Cape Town Metropolitan Municipality,Cape Town,Diepwater,,Silversands Road,2,7100
Wesbank,-33.9690855,18.6575119,OSM,South Africa,Western Cape,City of Cape Town Metropolitan Municipality,Cape Town,Diepwater,,Silversands Road,2,7100
West Court,-33.9029794,18.5992373,ArcGIS,South Africa,Western Cape,City of Cape Town Metropolitan Municipality,Cape Town,Avondale,,Wynne Street,93,7500
Westlake,-34.0784902,18.4410137,OSM,South Africa,Western Cape,City of Cape Town Metropolitan Municipality,Cape Town,Westlake,,Stibitz Street,6,7945
Wolseley,-33.4130556,19.2016667,OSM,South Africa,Western Cape,Cape Winelands District Municipality,Wolseley,,,White Street,21,6830
Ysterplaat,-33.9077455,18.4906363,ArcGIS,South Africa,Western Cape,City of Cape Town Metropolitan Municipality,Cape Town,Ysterplaat Airbase,,,,7405
Addo Clinic,-33.54672634,25.68818152,Google,South Africa,Eastern Cape,Sarah Baartman District Municipality,Addo,Addo,,Rohlihla Street,1178,6105
Algoa Park Clinic,-33.9011,25.5645,OSM,South Africa,Eastern Cape,Nelson Mandela Bay Metropolitan Municipality,Gqeberha,Algoa Park,,Chudleigh Street,8,6001
Amathole Basin Clinic,-32.6958,26.993,ArcGIS,South Africa,Eastern Cape,Amathole District Municipality,Komkhulu,,,,,
Baviaans Clinic,-33.3245277,24.3442579,Google,South Africa,Eastern Cape,Sarah Baartman District Municipality,Steytlerville,Steytlerville,,Piet Retief Street,4,6250
Blanco Clinic,-33.9432451,22.4122475,Google,South Africa,Western Cape,Garden Route District Municipality,George,Blanco,,George Street,3,6529
Booysens Park Clinic,-33.862,25.4587,Google,South Africa,Eastern Cape,Nelson Mandela Bay Metropolitan Municipality,Bethelsdorp,,,,,
Du Preez Street Clinic,-33.8033,25.4627,Google,South Africa,Eastern Cape,Nelson Mandela Bay Metropolitan Municipality,Despatch,Bothasrus,,Du Preez Street,8,6220
Ekuphumleni Clinic,-32.1781,26.7819,Google,South Africa,Eastern Cape,Chris Hani District Municipality,Whittlesea,,,,,5360
Gustav Lamour Clinic,-33.8159,25.4639,Google,South Africa,Eastern Cape,Nelson Mandela Bay Metropolitan Municipality,Despatch,Reservoir Hills,,Loerie Road,23,6220
High Street Clinic,-32.1686,25.6162,Google,South Africa,Eastern Cape,Chris Hani District Municipality,Nxuba,,,Beeren Street,16,5880
Isolomzi Clinic,-33.8256,25.3754,Google,South Africa,Eastern Cape,Nelson Mandela Bay Metropolitan Municipality,Kwa Nobuhle,Kwa Nobuhle 8,,Siviwe Crescent,3A,6242
Joe Slovo Clinic,-33.825,25.5027,Google,South Africa,Eastern Cape,Nelson Mandela Bay Metropolitan Municipality,Ibhayi,Joe Slovo,,Andiswa Street,5,6220
Kirkwood Clinic,-33.4006,25.4429,Google,South Africa,Oos-Kaap,Sarah Baartman District Municipality,Kirkwood,,,Middelstraat,24,6120
Kraaifontein CHC,-33.8529,18.7215,Google,South Africa,Western Cape,City of Cape Town Metropolitan Municipality,Cape Town,Eikendal,,Seventh Avenue,205,7570
Kruisrivier Clinic,-33.7668,25.3484,Google,South Africa,Eastern Cape,Nelson Mandela Bay Metropolitan Municipality,Gqeberha,Uitenhage Farms,,,117,
Kwamagxaki Clinic,-33.8396195,25.5338569,Google,South Africa,Eastern Cape,Nelson Mandela Bay Metropolitan Municipality,Gqeberha,KwaMagxaki,,Mdoda Road,10,6202
Kwazenzele Clinic,-33.4406827,25.9734553,Google,South Africa,Eastern Cape,Sarah Baartman District Municipality,Paterson,,,,,6130
Laetitia Bam CHC,-33.808,25.3983,Google,South Africa,Eastern Cape,Nelson Mandela Bay Metropolitan Municipality,Kwa Nobuhle,,,Matanzima Road,2,6242
Linton Grange Clinic,-33.9434881,25.516093,Google,South Africa,Eastern Cape,Nelson Mandela Bay Metropolitan Municipality,Gqeberha,Linton Grange,,Salvia Crescent,118,6015
Loerie Clinic,-33.875888,25.019514,Google,South Africa,Eastern Cape,Sarah Baartman District Municipality,Loerieheuwel,,,Magda Street,5,6350
Lukhanyiso Clinic,-33.52263,25.710898,Google,South Africa,Eastern Cape,Sarah Baartman District Municipality,Addo,,,Main Street,296,6105
Lukhanyo Clinic,-33.8171,25.4555,Google,South Africa,Eastern Cape,Nelson Mandela Bay Metropolitan Municipality,Despatch,Khayamnandi,,Chief Albert Luthuli Street,29,5920
Mabandla Clinic,-33.810106,25.378378,Google,South Africa,Eastern Cape,Nelson Mandela Bay Metropolitan Municipality,Kwa Nobuhle,Kwa Nobuhle 3,,Mabandla Road,14069,6242
Masakhane Clinic Aberdeen,-32.476266,24.062604,Google,South Africa,Eastern Cape,Sarah Baartman District Municipality,Aberdeen,Aberdeen,,Voortrekker Street,18,6270
Middle Street Clinic,-33.7577,25.3911,Google,South Africa,Eastern Cape,Nelson Mandela Bay Metropolitan Municipality,Kariega,Middlestreet,,Cannon Street,132,6241
Moses Mabida Clinic,-33.3973,25.4808,Google,South Africa,Eastern Cape,Sarah Baartman District Municipality,Nqweba,Bontrug,,Qolweni Street,1086,6120
New Brighton CHC,-33.9086,25.5855,Google,South Africa,Eastern Cape,Nelson Mandela Bay Metropolitan Municipality,Gqeberha,New Brighton 1,,Mfaku Street,1,6200
Nomangesi Jayiya Clinic,-33.8205,25.384,Google,South Africa,Eastern Cape,Nelson Mandela Bay Metropolitan Municipality,Kwa Nobuhle,Kwa Nobuhle 4,,Mqolomba Road,9640,6242
Olifantsfontein Clinic,-25.9566,28.2288,Google,South Africa,Gauteng,City of Ekurhuleni Metropolitan Municipality,Olifantsfontein,Clayville,,Chromium Lane,2006,1666
Park Centre Clinic,-33.763841,25.40174,Google,South Africa,Eastern Cape,Nelson Mandela Bay Metropolitan Municipality,Kariega,College Hill,,Graaff Reinet Road,75,6229
Rocklands Clinic,-34.064467,18.610725,Google,South Africa,Western Cape,City of Cape Town Metropolitan Municipality,Cape Town,Rocklands,,Park Avenue,,7798
Rosedale CHC,-33.7368,25.3762,Google,South Africa,Eastern Cape,Nelson Mandela Bay Metropolitan Municipality,Kariega,Rosedale,,Acacia Avenue,200,6241
Silvertown Clinic,-33.8265,25.4022,Google,South Africa,Eastern Cape,Nelson Mandela Bay Metropolitan Municipality,Kwa Nobuhle,Kwa Nobuhle 7,,Mondile Street,4684,6242
Sundays Valley  Hospital Kirkwood,-33.3947,25.44,Google,South Africa,Oos-Kaap,Sarah Baartman District Municipality,Kirkwood,,,Whytesweg,2,6120
Thembalethu Clinic Buffalo City,-34.004427,22.487299,Google,South Africa,Western Cape,Garden Route District Municipality,George,Thembalethu,,Sandkraal Road,4510,6529
Winnie Mandela Botshabelo Clinic,-29.2182,26.7033,Google,South Africa,Free State,Mangaung Metropolitan Municipality,Botshabelo,,,,,9781
Zwide Clinic,-33.868,25.5552,Google,South Africa,Eastern Cape,Nelson Mandela Bay Metropolitan Municipality,Ibhayi,Zwide 2,,Johnson Road,27,6201
INANDA C CHC,-29.7116,30.9727,HDX,South Africa,KwaZulu-Natal,eThekwini Metropolitan Municipality,Inanda,Newtown C,,108570 Street,6,4310
Britstown Northern Cape Province South Africa,-30.58746,23.50391,ArcGIS,South Africa,Northern Cape,Pixley ka Seme District Municipality,Britstown,,,Mark Street,14,8782
Burgersdorp Eastern Cape Province South Africa,-30.996609,26.3305057,Google,South Africa,Eastern Cape,Joe Gqabi District Municipality,Burgersdorp,,,Stasie Road,1,9744
De Aar Northern Cape Province South Africa,-30.64966,24.0123,ArcGIS,South Africa,Northern Cape,Pixley ka Seme District Municipality,De Aar,De Aar,,Alexander Street,3,7000
Graaff-Reinet Eastern Cape Province South Africa,-32.25215,24.53075,ArcGIS,South Africa,Eastern Cape,Sarah Baartman District Municipality,Graaff-Reinet,,,Somerset Street,84,6280
Hanover Northern Cape Province South Africa,-31.0682051,24.4439541,Google,South Africa,Northern Cape,Pixley ka Seme District Municipality,Hanover,Hanover,,Queen Street,25,7005
Jacobsdal Free State Province South Africa,-29.127612,24.774416,Google,South Africa,Free State,Xhariep District Municipality,Jacobsdal,,,Andries Pretoruis Street,,8710
Keimoes Upington Northern Cape Province South Africa,-28.44776,21.25612,ArcGIS,South Africa,Northern Cape,ZF Mgcawu District Municipality,Upington,Rand,,Camp Street,6,8801
Keurtjieskloof Renosterberg Northern Cape Province South Africa,-30.0105556,24.7318869,ArcGIS,South Africa,Northern Cape,Pixley ka Seme District Municipality,Vanderkloof,Van Der Kloof,,,,8771
Kirkwood Eastern Cape Province South Africa,-33.39829,25.44279,ArcGIS,South Africa,Oos-Kaap,Sarah Baartman District Municipality,Kirkwood,,,Markstraat,21,6120
Klaarstroom Prince Albert Western Cape Province South Africa,-33.33122,22.53592,ArcGIS,South Africa,Western Cape,Central Karoo District Municipality,Klaarstroom,,,,,6932
Leeu-Gamka Prince Albert Western Cape Province South Africa,-32.7672839,21.967243,Google,South Africa,Western Cape,Central Karoo District Municipality,Leeu Gamka,,,Granaatbos Street,3,6950
Louisvale Upington Northern Cape Province South Africa,-28.5740372,21.1978747,Google,South Africa,Northern Cape,ZF Mgcawu District Municipality,Louisvale,,,Kenhardt Road,,8801
Merweville Prince Albert Western Cape Province South Africa,-32.6694354,21.5139138,Google,South Africa,Western Cape,Central Karoo District Municipality,Merweville,,,Voortrekker Street,43,6940
Nieu-Bethesda Eastern Cape Province South Africa,-31.8669686,24.5533865,Google,South Africa,Eastern Cape,Sarah Baartman District Municipality,Nieu-Bethesda,,,Hudson Street,,6286
Paballelo Upington Northern Cape Province South Africa,-28.4392603,21.214452,Google,South Africa,Northern Cape,ZF Mgcawu District Municipality,Upington,Paballelo,,Lekanyane Crescent,241,8801
Petrusville  Renosterberg Northern Cape Province South Africa,-30.08113,24.6593,Google,South Africa,Northern Cape,Pixley ka Seme District Municipality,Petrusville,,,,,8770
Phillipstown Renosterberg Northern Cape Province South Africa,-30.4367427,24.4724852,Google,South Africa,Northern Cape,Pixley ka Seme District Municipality,Philipstown,,,R48,1868,8795
Prince Albert Western Cape Province South Africa,-33.22476,22.02673,Google,South Africa,Western Cape,Central Karoo District Municipality,Prince Albert,Prince Albert,,Klip Street,40,6930
Progress Upngton Northern Cape Province South Africa,-28.4605543,21.2204137,Google,South Africa,Northern Cape,ZF Mgcawu District Municipality,Upington,Progress,,,,8801
Raaswater Upington Northern Cape Province South Africa,-28.5925758,21.1894658,Google,South Africa,Northern Cape,ZF Mgcawu District Municipality,Raaswater,,,Druiwe Avenue,1,
Rosedale Upington Northern Cape Province South Africa,-28.4547193,21.2092356,Google,South Africa,Northern Cape,ZF Mgcawu District Municipality,Upington,Rosedale,,,,8801
Trompsburg Free State Province South Africa,-30.03363,25.78041,ArcGIS,South Africa,Free State,Xhariep District Municipality,Trompsburg,,,Voortrekker Street,64,9913
Amana,-6.8263726,39.2591028,Google,Tanzania,Dar es Salam,Ilala,Dar es Salaam,,,,,
Kimara,-6.7856,39.1662,HDX,Tanzania,Dar es Salam,Kinondoni,Dar es Salaam,,,,,
Kizuiani,-6.902893238,39.26606879,Manual,Tanzania,Dar es Salam,,Dar es Salaam,,,,,
Magomeni,-6.80663,39.25733,Google,Tanzania,Dar es Salam,Kinondoni,Dar es Salaam,,,,,
Mtoni,-6.868356624,39.27573048,Manual,Tanzania,Dar es Salam,Temeke,Dar es Salaam,,,,,
Muhimbili,-6.8039502,39.2703875,Google,Tanzania,Dar es Salam,Ilala,Dar es Salaam,,,,,
Mwananyamala,-6.786844078,39.25382127,Manual,Tanzania,Dar es Salam,Kinondoni,Dar es Salaam,,,,,
Mwenge,-6.766753112,39.23202925,Manual,Tanzania,Dar es Salam,Kinondoni,Dar es Salaam,Mwenge,,,,
Oyster Bay,-6.755766867,39.28203506,Manual,Tanzania,Dar es Salam,Kinondoni,Dar es Salaam,Masaki,,Touch Lane,7,14111
Rangi tatu,-6.9140205,39.2706386,Google,Tanzania,Dar es Salam,Temeke,Dar es Salaam,,,,,
Roundtable,-6.9014,39.2642,HDX,Tanzania,Dar es Salam,Temeke,Dar es Salaam,,,,,
Sinza,-6.782653803,39.22255687,Manual,Tanzania,Dar es Salam,Kinondoni,Dar es Salaam,,,Shekilango Road,,
Tabata 'A',-6.84228547,39.19550657,Manual,Tanzania,Dar es Salam,Ilala,Dar es Salaam,Segerea,,Amani Street,,
Tambuka reli,-2.56727701,32.93419366,Manual,Tanzania,Mwanza Region,Nyamagana,,,,,,
Tandale,-6.796505375,39.23780305,Manual,Tanzania,Dar es Salam,Kinondoni,Dar es Salaam,,,,,
Temeke,-6.859507748,39.26324142,Manual,Tanzania,Dar es Salam,Temeke,Dar es Salaam,,,Temeke Street,,
Vinguguti,-6.847850652,39.22548999,Manual,Tanzania,Dar es Salaam,Wilaya ya Ilala,Dar es Salaam,,,,,
